City_ID,City,Lat,Lng,Max Temp,Humidity,Cloudiness,Wind Speed,Country,Date
0,hermanus,-34.4187,19.2345,17.74,86,5,4.76,ZA,1701899019
1,san pedro pochutla,15.7333,-96.4667,30.84,61,80,3.01,MX,1701899019
2,bilibino,68.0546,166.4372,-30.91,99,100,1.83,RU,1701899019
3,la crosse,43.8014,-91.2396,7.42,60,0,7.2,US,1701898857
4,badger,64.8,-147.5333,-14.07,84,100,1.54,US,1701899020
5,port alfred,-33.5906,26.891,19.54,84,67,3.13,ZA,1701899020
6,blackmans bay,-43.0167,147.3167,15.96,59,100,0.89,AU,1701899020
7,stanley,54.868,-1.6985,2.09,92,0,2.57,GB,1701899020
8,zemetchino,53.4973,42.6163,-16.04,98,78,1.57,RU,1701899020
9,kavalerovo,44.2661,135.0572,-0.25,93,100,1.34,RU,1701899020
10,margaret river,-33.95,115.0667,13.95,83,100,3.92,AU,1701899021
11,alofi,-19.0595,-169.9187,26.94,83,75,3.09,NU,1701899021
12,tiksi,71.6872,128.8694,-25.63,97,100,3.53,RU,1701899021
13,saipan,15.1355,145.701,27.39,78,0,4.63,MP,1701899021
14,klyuchi,52.2667,79.1667,-12.57,67,100,8.88,RU,1701899021
15,tolanaro,-25.0319,46.9987,24.04,78,75,4.12,MG,1701899021
16,zaozersk,69.4005,32.4476,-19.34,100,86,2.42,RU,1701899022
17,nicoya,10.1483,-85.452,27.48,73,10,5.75,CR,1701899022
18,cabo san lucas,22.8909,-109.9124,29.78,69,0,5.14,MX,1701898995
19,taoudenni,22.6783,-3.9836,22.55,11,100,2.87,ML,1701899022
20,nova sintra,14.8667,-24.7167,21.65,73,100,8.26,CV,1701899022
21,port elizabeth,-33.918,25.5701,20.61,82,100,6.17,ZA,1701899022
22,tortoli,39.9256,9.6572,11.9,58,0,5.66,IT,1701899022
23,grytviken,-54.2811,-36.5092,-0.36,79,51,4.36,GS,1701899023
24,longyearbyen,78.2186,15.6401,-4.09,68,75,8.75,SJ,1701899023
25,vila franca do campo,37.7167,-25.4333,20.23,99,100,7.93,PT,1701899023
26,waitangi,-43.9535,-176.5597,16.57,93,100,2.24,NZ,1701899023
27,detroit lakes,46.8172,-95.8453,7.75,65,0,2.57,US,1701898823
28,peterhead,57.5058,-1.7981,4.22,67,99,10.78,GB,1701899023
29,nemuro,43.3236,145.575,8.46,93,100,7.34,JP,1701899024
30,vilyuchinsk,52.9306,158.4028,-8.37,84,63,2.99,RU,1701899024
31,punta gorda,26.9298,-82.0454,21.03,39,0,5.14,US,1701899024
32,enewetak,11.3474,162.3373,27.62,72,94,9.73,MH,1701899024
33,port-aux-francais,-49.35,70.2167,4.72,85,100,8.98,TF,1701899024
34,puerto natales,-51.7236,-72.4875,13.25,44,20,10.8,CL,1701899024
35,papatowai,-46.5619,169.4708,11.02,71,82,7.51,NZ,1701899024
36,quellon,-43.1167,-73.6167,13.76,63,5,5.83,CL,1701899025
37,kingston,17.997,-76.7936,31.53,66,40,3.6,JM,1701898799
38,bethel,41.3712,-73.414,3.06,70,100,3.6,US,1701898974
39,hawaiian paradise park,19.5933,-154.9731,26.04,77,100,1.79,US,1701899025
40,ancud,-41.8697,-73.8203,14.16,74,15,2.59,CL,1701899025
41,bredasdorp,-34.5322,20.0403,17.1,88,35,3.87,ZA,1701899025
42,albany,42.6001,-73.9662,-0.18,88,97,3.6,US,1701898847
43,hilo,19.7297,-155.09,26.16,81,100,2.24,US,1701898761
44,acapulco de juarez,16.8634,-99.8901,29.9,74,100,4.63,MX,1701899026
45,nykvarn,59.8,18.3,-10.98,96,93,0.66,SE,1701899026
46,zeya,53.75,127.2667,-17.94,98,100,0.82,RU,1701899026
47,lhokseumawe,5.1801,97.1507,25.44,84,100,1.36,ID,1701898742
48,port mathurin,-19.6833,63.4167,25.63,79,3,3.57,MU,1701899026
49,necochea,-38.5473,-58.7368,17.01,82,100,5.13,AR,1701899027
50,rio grande,-32.035,-52.0986,21.06,96,100,1.51,BR,1701899027
51,pisco,-13.7,-76.2167,23.03,73,0,8.75,PE,1701899027
52,mamuju,-2.6748,118.8885,25.43,88,100,2.98,ID,1701899027
53,edinburgh of the seven seas,-37.0676,-12.3116,14.29,77,10,8.24,SH,1701899027
54,harper,4.375,-7.7169,26.48,81,0,3.63,LR,1701899027
55,pacific grove,36.6177,-121.9166,18.06,80,0,4.47,US,1701899027
56,uturoa,-16.7333,-151.4333,26.29,80,100,7.8,PF,1701899028
57,adamstown,-25.066,-130.1015,22.99,78,99,4.98,PN,1701899028
58,iqaluit,63.7506,-68.5145,-13.15,78,20,4.63,CA,1701899028
59,anadyr,64.75,177.4833,-20.56,83,100,14.0,RU,1701899028
60,revelstoke,50.9832,-118.2023,2.01,93,100,0.0,CA,1701899028
61,port-vila,-17.7338,168.3219,26.78,83,75,6.17,VU,1701898817
62,kodiak,57.79,-152.4072,0.73,47,0,10.8,US,1701899028
63,hadibu,12.65,54.0333,24.92,68,100,5.68,YE,1701899029
64,gamba,-2.65,10.0,25.44,84,29,1.76,GA,1701899029
65,ribeira grande,38.5167,-28.7,18.22,77,40,8.23,PT,1701899029
66,georgetown,5.4112,100.3354,26.96,92,20,0.51,MY,1701899029
67,newman,37.3138,-121.0208,19.13,37,64,7.11,US,1701899029
68,thompson,55.7435,-97.8558,-3.91,93,75,3.09,CA,1701899029
69,flying fish cove,-10.4217,105.6791,24.82,88,75,3.09,CX,1701899030
70,isafjordur,66.0755,-23.124,-2.85,81,23,2.71,IS,1701899030
71,leava,-14.3,-178.1667,28.31,71,96,5.76,WF,1701899030
72,manokwari,-0.8667,134.0833,25.27,86,100,2.44,ID,1701898784
73,chonchi,-42.6128,-73.8092,18.56,61,11,1.31,CL,1701899030
74,udachny,66.4167,112.4,-25.07,98,100,1.36,RU,1701899030
75,peniche,39.3558,-9.3811,13.39,86,100,5.11,PT,1701899030
76,hithadhoo,-0.6,73.0833,28.3,77,38,5.12,MV,1701899030
77,cill airne,52.05,-9.5167,8.65,96,94,2.41,IE,1701899031
78,beinamar,8.6698,15.3813,27.02,24,50,1.72,TD,1701899031
79,fort morgan,40.2503,-103.8,18.68,25,3,0.0,US,1701899031
80,sur,22.5667,59.5289,22.71,48,0,1.9,OM,1701899031
81,inari,68.906,27.0288,-18.89,98,92,1.62,FI,1701899031
82,tazovsky,67.4667,78.7,-28.3,99,100,4.49,RU,1701899031
83,fale old settlement,-9.3852,-171.2468,29.09,75,98,4.81,TK,1701899032
84,college,64.8569,-147.8028,-14.03,82,100,1.54,US,1701899032
85,la'ie,21.6477,-157.9253,28.98,74,12,4.47,US,1701899032
86,prado,-17.3411,-39.2208,25.08,81,0,3.59,BR,1701899032
87,bam,29.106,58.357,12.72,19,73,1.2,IR,1701899032
88,ilulissat,69.2167,-51.1,-1.99,46,75,1.03,GL,1701899032
89,port saint john's,-31.6229,29.5448,19.73,89,100,7.36,ZA,1701899033
90,wailua homesteads,22.0669,-159.378,25.97,71,75,6.17,US,1701899033
91,west island,-12.1568,96.8225,24.99,94,100,3.6,CC,1701899033
92,crucecita,-28.95,-58.9833,24.39,88,71,3.09,AR,1701899033
93,taveta,-3.3963,37.6736,21.7,83,44,1.69,KE,1701899033
94,ushuaia,-54.8,-68.3,8.81,66,0,12.86,AR,1701898881
95,yellowknife,62.456,-114.3525,-7.71,93,100,3.09,CA,1701899033
96,oasis,33.4659,-116.0989,29.91,27,0,1.54,US,1701899034
97,dudinka,69.4058,86.1778,-25.18,98,100,3.58,RU,1701899034
98,kailua-kona,19.6406,-155.9956,30.33,73,20,4.12,US,1701899034
99,meadow lakes,61.6247,-149.6011,-3.51,91,100,0.0,US,1701899034
100,arawa,-6.2132,155.5367,28.96,71,81,2.24,PG,1701899034
101,ulsteinvik,62.3432,5.8487,1.53,63,100,3.13,NO,1701899034
102,ust-nera,64.5667,143.2,-46.0,90,16,0.72,RU,1701899034
103,mount gambier,-37.8333,140.7667,14.91,55,100,2.22,AU,1701898834
104,san patricio,28.017,-97.5169,23.05,53,78,5.2,US,1701899035
105,sesheke,-17.4759,24.2968,26.98,31,45,1.57,ZM,1701899035
106,darwin,-12.4611,130.8418,24.99,93,75,1.54,AU,1701898868
107,carauari,-4.8828,-66.8958,25.77,94,85,1.0,BR,1701898914
108,khandyga,62.6667,135.6,-45.09,97,100,0.68,RU,1701899035
109,avarua,-21.2078,-159.775,28.03,74,75,9.26,CK,1701899036
110,hoo,51.4175,0.5652,5.66,91,92,3.91,GB,1701899036
111,tchibanga,-2.85,11.0333,22.0,98,20,0.43,GA,1701899036
112,afaahiti,-17.75,-149.2833,27.93,87,100,7.5,PF,1701899036
113,st. john's,47.5649,-52.7093,-3.58,83,40,2.57,CA,1701898870
114,thunder bay,48.4001,-89.3168,1.99,80,100,5.14,CA,1701899001
115,ebon,4.582,168.6964,28.14,81,95,9.55,MH,1701899036
116,puerto ayora,-0.7393,-90.3518,29.98,90,91,3.13,EC,1701899037
117,siwa oasis,29.2041,25.5195,15.15,54,69,2.26,EG,1701899037
118,preobrazheniye,42.9019,133.9064,1.03,74,100,3.82,RU,1701899037
119,qaqortoq,60.7167,-46.0333,0.73,64,100,2.68,GL,1701899037
120,cobija,-11.0267,-68.7692,24.1,94,75,4.12,BO,1701899037
121,sokoni,-6.4333,39.55,27.64,80,100,3.71,TZ,1701899037
122,salinopolis,-0.6136,-47.3561,27.42,80,50,5.77,BR,1701899038
123,east london,-33.0153,27.9116,19.94,84,89,8.24,ZA,1701899038
124,lora del rio,37.659,-5.5275,13.66,89,100,1.44,ES,1701898826
125,karaton,-6.3424,106.1045,23.97,92,100,1.52,ID,1701899038
126,la passe,45.5549,-0.8967,4.13,88,72,4.8,FR,1701899038
127,chibougamau,49.9168,-74.3659,-11.21,79,100,1.54,CA,1701899038
128,bentota,6.4254,79.9948,25.36,91,70,1.39,LK,1701899038
129,duong dong,10.2167,103.9667,25.0,94,40,0.51,VN,1701899039
130,aykhal,66.0,111.5,-24.48,98,100,2.03,RU,1701899039
131,howrah,22.5892,88.3103,19.0,88,75,3.6,IN,1701899039
132,sitka,57.0531,-135.33,5.94,75,100,6.17,US,1701899039
133,arraial do cabo,-22.9661,-42.0278,25.98,78,0,10.29,BR,1701899039
134,sisimiut,66.9395,-53.6735,-6.73,68,68,3.46,GL,1701899039
135,misratah,32.3754,15.0925,18.21,42,100,2.95,LY,1701898993
136,ilebo,-4.3167,20.5833,22.89,91,99,0.97,CD,1701899040
137,akureyri,65.6835,-18.0878,-16.04,85,0,0.0,IS,1701899040
138,isangel,-19.55,169.2667,27.06,74,75,1.03,VU,1701899040
139,hasaki,35.7333,140.8333,10.22,66,96,9.92,JP,1701899040
140,mata-utu,-13.2816,-176.1745,27.91,79,65,5.87,WF,1701899040
141,olonkinbyen,70.9221,-8.7187,-3.71,81,100,3.63,SJ,1701899040
142,rengasdengklok,-6.1592,107.2981,26.07,89,100,2.56,ID,1701899040
143,howard springs,-12.497,131.047,24.95,90,98,1.27,AU,1701899041
144,kavaratti,10.5669,72.642,27.72,69,95,1.34,IN,1701899041
145,dame-marie,18.5667,-74.4167,26.71,77,10,5.21,HT,1701899041
146,kulhudhuffushi,6.6221,73.07,28.13,74,100,2.49,MV,1701899041
147,whitehorse,60.7161,-135.0538,-0.57,80,75,5.66,CA,1701899041
148,jasrasar,28.298,74.8093,15.42,36,0,2.24,IN,1701899041
149,jiuquan,39.7432,98.5174,0.7,26,46,2.66,CN,1701899041
150,tambacounda,13.7539,-13.7586,28.03,42,0,2.06,SN,1701898811
151,lebu,-37.6167,-73.65,14.61,79,2,6.8,CL,1701899042
152,old town,50.087,14.4202,2.78,94,100,4.12,CZ,1701899042
153,ulysses,37.5814,-101.3552,24.02,15,0,8.23,US,1701898871
154,lompoc,34.6391,-120.4579,21.12,69,40,3.09,US,1701899042
155,campbell river,50.0163,-125.2446,8.21,81,75,2.06,CA,1701898818
156,invercargill,-46.4,168.35,12.36,59,82,7.5,NZ,1701899042
157,tottori,35.5,134.2333,12.04,71,75,3.6,JP,1701899043
158,eyl,7.9803,49.8164,24.62,63,29,9.14,SO,1701899043
159,sorsk,54.0033,90.2467,-12.42,63,1,8.52,RU,1701899043
160,ar rahad,12.7167,30.65,22.69,18,68,4.33,SD,1701899043
161,krivosheino,57.3431,83.9261,-23.73,96,100,3.94,RU,1701899043
162,qarqaraly,49.4058,75.4742,-12.67,91,100,7.2,KZ,1701899044
163,balabac,7.9868,117.0645,27.11,83,54,1.1,PH,1701899044
164,daru,-9.0763,143.2092,27.17,79,40,3.73,PG,1701899044
165,argo,37.6333,22.7333,13.77,71,100,1.74,GR,1701898791
166,gao,16.6362,1.637,24.29,14,0,4.55,ML,1701899044
167,kapa'a,22.0752,-159.319,26.72,69,75,6.17,US,1701899044
168,sinabang,2.4803,96.3801,26.28,86,100,4.06,ID,1701899044
169,margate,51.3813,1.3862,7.72,95,91,1.34,GB,1701899045
170,wotho,10.1657,166.0102,27.66,78,98,10.03,MH,1701899045
171,east perth,-31.9543,115.8779,18.9,76,0,4.63,AU,1701899045
172,fort scott,37.8398,-94.7083,14.16,45,6,6.81,US,1701899045
173,jiazi,22.8779,116.067,15.14,57,70,3.15,CN,1701899045
174,new norfolk,-42.7826,147.0587,16.62,56,100,2.37,AU,1701899045
175,abbeville,50.1,1.8333,2.36,90,80,2.89,FR,1701899046
176,ermelo,-26.5333,29.9833,12.29,96,100,3.57,ZA,1701899046
177,port lincoln,-34.7333,135.8667,17.45,65,100,5.88,AU,1701899046
178,lata,40.1629,-8.3327,12.67,80,100,1.43,PT,1701899046
179,chernyshevskiy,63.0128,112.4714,-44.02,100,100,0.34,RU,1701899046
180,mishkino,55.3389,63.9175,-26.34,95,16,3.61,RU,1701899047
181,huarmey,-10.0681,-78.1522,21.69,78,100,4.77,PE,1701899047
182,kiunga,-6.1219,141.2906,24.73,94,99,0.57,PG,1701899047
183,punta arenas,-53.15,-70.9167,11.06,66,0,12.35,CL,1701899047
184,bandarbeyla,9.4942,50.8122,24.85,61,100,9.27,SO,1701899047
185,bonthe,7.5264,-12.505,26.65,85,0,2.98,SL,1701899048
186,fenyi,27.8112,114.6681,9.85,69,0,0.97,CN,1701899048
187,bridgewater,44.3835,-64.5155,0.82,71,88,5.14,CA,1701899048
188,veinticinco de mayo,-35.4323,-60.1727,18.13,94,90,3.24,AR,1701899049
189,antsiranana,-12.2787,49.2917,25.25,75,93,4.1,MG,1701899049
190,merrillville,41.4828,-87.3328,2.91,78,40,6.17,US,1701899049
191,vadso,70.0744,29.7487,-8.91,86,75,4.12,NO,1701899049
192,san rafael,-34.6177,-68.3301,29.41,8,0,6.92,AR,1701899049
193,chernyshevsk,52.5243,117.0174,-29.1,96,5,1.07,RU,1701899049
194,salavan,15.7167,106.4167,20.33,91,52,1.24,LA,1701899050
195,fada,9.5667,8.3,22.28,28,24,1.64,NG,1701899050
196,vaggeryd,57.4981,14.1484,-1.85,92,100,3.91,SE,1701899050
197,ghat,24.9647,10.1728,20.38,15,90,1.54,LY,1701899050
198,sukumo,32.9333,132.7333,12.15,68,22,6.19,JP,1701899050
199,kondopoga,62.2057,34.2614,-25.18,100,85,0.58,RU,1701899051
200,camocim,-2.9022,-40.8411,27.58,73,100,9.19,BR,1701899051
201,keflavik,64.0049,-22.5624,1.95,60,0,9.26,IS,1701899051
202,kasongo-lunda,-6.4667,16.8167,21.26,90,91,0.43,CD,1701899051
203,nyurba,63.2842,118.3319,-47.95,100,84,1.4,RU,1701899051
204,kirakira,-10.4544,161.9205,26.46,90,100,5.71,SB,1701898917
205,susuman,62.7833,148.1667,-49.45,99,71,0.45,RU,1701899052
206,reggane,26.7158,0.1714,19.73,25,18,2.67,DZ,1701899052
207,ta`u,-14.2336,-169.5144,26.86,83,33,5.47,AS,1701899052
208,antonio enes,-16.2325,39.9086,26.11,82,77,3.96,MZ,1701898787
209,tura,25.5198,90.2201,19.44,72,100,1.16,IN,1701899053
210,itoman,26.1247,127.6694,21.43,63,75,9.77,JP,1701899053
211,karratha,-20.7377,116.8463,29.95,26,6,4.28,AU,1701899053
212,banjar,-8.19,114.9675,25.12,91,93,2.43,ID,1701899053
213,hamilton,39.1834,-84.5333,5.61,69,40,5.66,US,1701898835
214,coruripe,-10.1256,-36.1756,25.07,82,21,4.58,BR,1701899054
215,at taj,24.2049,23.2857,13.2,48,0,2.01,LY,1701899054
216,nabire,-3.3667,135.4833,25.67,87,98,1.33,ID,1701899054
217,taltal,-25.4,-70.4833,20.27,66,22,3.81,CL,1701899054
218,sandwich,41.6459,-88.6217,3.42,78,20,4.12,US,1701899055
219,pyapon,16.2833,95.6833,23.55,83,58,2.06,MM,1701899055
220,sechura,-5.5569,-80.8222,24.48,65,96,6.97,PE,1701899055
221,general acha,-37.377,-64.6043,18.62,67,87,2.66,AR,1701899055
222,berezovyy,51.6667,135.7,-11.92,97,100,0.95,RU,1701899055
223,constantia,44.1833,28.65,4.38,83,100,8.53,RO,1701899056
224,konarka,19.9,86.1167,20.22,91,100,6.34,IN,1701899056
225,qarauyl,48.9451,79.255,-7.63,59,52,7.58,KZ,1701899056
226,ciudad bolivar,8.1222,-63.5497,28.71,60,98,6.73,VE,1701899056
227,pellaro,38.0167,15.65,15.17,75,75,3.6,IT,1701899057
228,guerrero negro,27.9769,-114.0611,24.93,30,0,4.45,MX,1701899024
229,happy valley-goose bay,53.3168,-60.3315,-3.83,68,75,4.63,CA,1701899057
230,pokrovo-prigorodnoye,52.6841,41.4175,-8.02,86,100,2.27,RU,1701899057
231,opuwo,-18.0607,13.84,24.01,60,59,2.13,NA,1701899057
232,dryden,49.7833,-92.7503,2.16,69,75,5.66,CA,1701899057
233,alesund,62.4723,6.1549,1.53,64,0,5.14,NO,1701899058
234,hwange,-18.3693,26.5019,29.94,25,18,4.52,ZW,1701898836
235,alice springs,-23.7,133.8833,29.75,35,0,4.12,AU,1701899058
236,kolonia town,6.964,158.206,27.0,89,100,2.57,FM,1701899058
237,ndele,8.4109,20.6473,26.37,27,60,1.22,CF,1701899058
238,ujae,8.9322,165.7642,27.83,75,97,9.87,MH,1701899059
239,mendaha,-1.0333,103.5833,23.2,92,43,1.5,ID,1701899059
240,sao joao da barra,-21.6403,-41.0511,27.05,89,1,7.25,BR,1701899059
241,kapuskasing,49.4169,-82.4331,-5.95,79,100,4.12,CA,1701898886
242,yaren,-0.5472,166.916,28.18,78,99,6.01,NR,1701899059
243,tinajo,29.0788,-13.7081,18.49,72,40,2.06,ES,1701899060
244,talnakh,69.4865,88.3972,-24.73,99,100,3.73,RU,1701899060
245,lodhran,29.5405,71.6336,15.72,31,0,1.52,PK,1701899060
246,santa ana de yacuma,-13.75,-65.4333,32.97,58,40,3.09,BO,1701899060
247,queimadas,-10.9783,-39.6264,27.34,56,53,3.36,BR,1701899061
248,ardakan,32.31,54.0175,11.35,19,100,0.57,IR,1701899061
249,dunedin,-45.8742,170.5036,16.0,52,71,5.36,NZ,1701899061
250,olbia,40.9214,9.4856,9.03,81,0,4.63,IT,1701899061
251,casino,-28.8667,153.05,25.31,61,84,0.32,AU,1701899061
252,xining,36.6167,101.7667,-2.24,29,0,1.09,CN,1701899062
253,tobruk,32.0836,23.9764,18.04,61,100,6.04,LY,1701899062
254,kovalam,8.3667,76.9967,28.05,83,40,0.0,IN,1701899062
255,grand gaube,-20.0064,57.6608,25.21,91,24,0.89,MU,1701899062
256,luderitz,-26.6481,15.1594,16.32,92,2,3.82,NA,1701899062
257,island harbour,50.724,-1.2758,9.4,80,100,4.02,GB,1701899062
258,gadzhiyevo,69.2551,33.3362,-15.79,97,91,4.64,RU,1701899063
259,okhotsk,59.3833,143.3,-20.18,73,100,6.15,RU,1701899063
260,northam,51.0333,-4.2167,10.37,94,100,11.1,GB,1701899063
261,lexington,37.9887,-84.4777,5.62,64,62,0.45,US,1701898772
262,villa rica,33.7321,-84.9191,10.83,50,4,1.34,US,1701899063
263,villa juarez,24.6536,-107.5411,32.14,27,75,2.06,MX,1701899063
264,aasiaat,68.7098,-52.8699,-5.42,71,100,8.98,GL,1701899064
265,glace bay,46.1969,-59.957,-0.99,78,75,4.12,CA,1701899064
266,chos malal,-37.3781,-70.2709,24.13,23,62,4.03,AR,1701899064
267,messini,37.0511,22.0078,14.54,94,100,0.51,GR,1701899064
268,antofagasta,-23.65,-70.4,18.6,76,15,4.67,CL,1701899038
269,livingston,55.9029,-3.5226,3.04,78,0,4.12,GB,1701899064
270,trinity beach,-16.7888,145.6968,26.94,69,87,4.12,AU,1701899065
271,bardai,11.65,7.2333,21.38,18,11,3.88,NG,1701898791
272,saldanha,-33.0117,17.9442,22.03,74,0,1.99,ZA,1701899065
273,iskateley,67.6803,53.1512,-17.21,97,100,4.02,RU,1701899065
274,fatezh,52.0891,35.8632,-7.01,97,55,4.03,RU,1701899065
275,kununurra,-15.7667,128.7333,24.99,88,32,0.0,AU,1701899065
276,kuala belait,4.5833,114.1833,25.09,89,98,1.72,BN,1701899066
277,saudarkrokur,65.7461,-19.6394,-6.18,59,3,3.17,IS,1701899066
278,san vincenzo,43.0928,10.5408,10.51,84,0,2.55,IT,1701899066
279,brandon,27.9378,-82.2859,17.92,52,0,3.13,US,1701899066
280,codrington,-38.2667,141.9667,15.28,58,100,1.83,AU,1701899066
281,union,40.6334,-74.2663,4.53,54,100,4.63,US,1701899067
282,eldorado,-23.7869,-54.2836,25.43,84,98,1.04,BR,1701899067
283,broken hill,-31.95,141.4333,30.53,25,99,8.77,AU,1701898887
284,alpine,32.835,-116.7664,24.01,35,0,3.09,US,1701898805
285,panchagarh,26.3313,88.562,19.2,64,100,1.6,BD,1701899067
286,linqiong,30.4159,103.4609,4.9,62,2,1.05,CN,1701899067
287,lerwick,60.1545,-1.1494,5.0,80,17,8.88,GB,1701899068
288,mwene-ditu,-7.0,23.45,19.39,98,100,1.29,CD,1701899068
289,maragogi,-9.0122,-35.2225,25.86,77,12,3.18,BR,1701899068
290,kudahuvadhoo,2.6708,72.8944,27.8,78,100,3.31,MV,1701899068
291,ingeniero jacobacci,-41.3427,-69.5448,24.57,19,90,6.05,AR,1701899068
292,ozu,33.5,132.55,13.99,71,72,8.78,JP,1701899069
293,sinjai,-5.1241,120.253,24.64,93,98,2.42,ID,1701898828
294,trebujena,36.8725,-6.2165,15.1,100,100,0.51,ES,1701899069
295,villa ocampo,-28.4875,-59.3551,25.62,81,58,3.43,AR,1701899069
296,xinqing,48.2333,129.5,-17.78,97,32,1.79,CN,1701899069
297,gobernador virasora,-28.05,-56.0333,28.06,96,82,0.45,AR,1701899070
298,mokhsogollokh,61.4681,128.9203,-41.99,95,100,0.54,RU,1701899070
299,trairi,-3.2778,-39.2689,26.89,75,92,5.26,BR,1701898816
300,biryusinsk,55.9634,97.8235,-21.47,97,100,5.3,RU,1701899070
301,mont-laurier,46.5501,-75.4993,-10.21,94,8,0.86,CA,1701899070
302,rongelap,11.1635,166.8941,27.5,80,100,10.11,MH,1701899070
303,hammerfest,70.6634,23.6821,-5.75,63,58,8.75,NO,1701899071
304,ust'-kut,56.7938,105.7672,-37.53,98,62,1.79,RU,1701899071
305,songyang,34.4553,113.0281,9.6,26,0,1.91,CN,1701899071
306,katsuren-haebaru,26.3369,127.8719,21.43,60,100,6.17,JP,1701898841
307,grand-bassam,5.2118,-3.7388,28.98,82,34,3.4,CI,1701899071
308,ambalavao,-21.8333,46.9333,19.74,80,98,2.61,MG,1701899071
309,puerto lempira,15.2667,-83.7667,28.08,74,75,4.63,HN,1701898784
310,pandan,14.0453,124.1694,25.61,82,80,3.37,PH,1701899072
311,ola,59.5833,151.2833,-15.97,66,100,6.49,RU,1701899072
312,musan-up,42.2261,129.2078,-7.16,41,70,4.7,KP,1701899072
313,dar kulayb,26.0686,50.5039,21.97,88,18,0.71,BH,1701899072
314,sarmiento,-45.5882,-69.07,24.66,22,1,1.17,AR,1701899072
315,palikir - national government center,6.9248,158.1611,26.41,89,100,2.57,FM,1701899073
316,sumbawa besar,-8.5,117.4333,24.87,89,100,1.44,ID,1701899073
317,pointe-noire,-4.7761,11.8635,26.34,83,54,2.04,CG,1701899073
318,mahajanga,-15.7167,46.3167,29.01,84,20,3.6,MG,1701899073
319,ponta delgada,37.7333,-25.6667,20.4,88,75,7.72,PT,1701899073
320,san julian,21.0167,-102.1667,19.47,44,93,5.16,MX,1701899074
321,othis,49.0739,2.675,4.04,96,75,2.57,FR,1701899074
322,wynne,35.2245,-90.7868,9.19,48,0,1.2,US,1701899074
323,sarangani,5.4033,125.4636,28.05,77,87,2.48,PH,1701899074
324,kayangel,8.0823,134.7173,28.56,75,84,4.46,PW,1701899074
325,lingen,52.5167,7.3167,2.19,87,100,3.49,DE,1701899074
326,petropavlovsk-kamchatsky,53.0452,158.6483,-9.19,69,0,6.71,RU,1701899075
327,cianorte,-23.6633,-52.605,24.31,86,99,1.94,BR,1701899075
328,fairfax,38.8501,-77.3497,5.97,53,75,7.2,US,1701899042
329,murzuq,25.9155,13.9184,17.61,28,100,4.12,LY,1701899075
330,san miguel de allende,20.9167,-100.75,17.38,68,96,1.79,MX,1701899075
331,fort st. john,56.2499,-120.8529,3.94,52,20,5.66,CA,1701899048
332,tefe,-3.3542,-64.7114,32.06,62,40,3.09,BR,1701899076
333,salalah,17.0151,54.0924,24.05,41,0,3.09,OM,1701899076
334,yanchep,-31.55,115.6833,19.23,72,64,4.58,AU,1701899076
335,kristiansund,63.1115,7.732,-0.64,69,75,2.57,NO,1701899076
336,zunyi,27.6867,106.9072,7.88,86,57,0.52,CN,1701899076
337,nakamura,32.9833,132.9333,11.59,69,8,4.62,JP,1701899076
338,zhangye,38.9342,100.4517,-1.06,34,18,0.71,CN,1701899076
339,alo,7.4178,6.7371,28.67,42,90,1.34,NG,1701899077
340,jilin,43.0,126.0,-11.14,93,9,1.36,CN,1701899077
341,manaure,11.7751,-72.4445,29.66,59,11,6.19,CO,1701899077
342,laguna,38.421,-121.4238,15.16,83,40,3.6,US,1701899077
343,cam ranh,11.9214,109.1591,23.98,94,40,6.69,VN,1701899077
344,mukalla,14.5425,49.1242,23.24,71,5,1.41,YE,1701898902
345,vizinga,61.0749,50.1031,-29.03,98,10,0.7,RU,1701899078
346,salinas,36.6777,-121.6555,19.32,70,75,2.57,US,1701899078
347,scarborough,54.2797,-0.4044,6.48,88,73,2.68,GB,1701898373
348,mapastepec,15.4333,-92.9,30.96,56,33,1.62,MX,1701899078
349,remire-montjoly,4.9167,-52.2667,27.02,89,20,1.54,GF,1701899078
350,knoxville,35.9606,-83.9207,7.79,59,40,3.6,US,1701898763
351,oranjemund,-28.55,16.4333,16.85,95,1,1.28,NA,1701899079
352,damghan,36.1683,54.348,8.5,34,100,0.6,IR,1701899079
353,stephenville,32.2207,-98.2023,20.65,34,0,4.12,US,1701899079
354,rosarito,32.3333,-117.0333,24.02,61,8,1.9,MX,1701898524
355,sturgis,41.7992,-85.4192,3.89,74,0,2.57,US,1701899079
356,chegdomyn,51.1167,133.0167,-13.33,92,100,1.27,RU,1701899079
357,ambanja,-13.6833,48.45,24.16,94,90,1.12,MG,1701899079
358,mirnyy,62.5353,113.9611,-45.43,63,82,0.89,RU,1701899080
359,riberalta,-10.9833,-66.1,32.11,66,75,0.0,BO,1701899080
360,beyneu,45.3167,55.2,-0.92,56,99,6.31,KZ,1701899080
361,santiago de cao,-7.9589,-79.2392,20.07,83,75,6.17,PE,1701899080
362,jeypore,18.85,82.5833,19.68,93,98,2.53,IN,1701899080
363,labytnangi,66.6572,66.4183,-34.66,100,21,1.41,RU,1701898808
364,vernon,50.2581,-119.2691,7.01,95,100,1.54,CA,1701899080
365,andergrove,-21.0833,149.1833,27.58,75,67,7.08,AU,1701899081
366,puerto baquerizo moreno,-0.9,-89.6,27.55,69,20,6.17,EC,1701899081
367,kuta,-8.7233,115.1723,25.97,94,40,2.68,ID,1701899081
368,el granada,37.5027,-122.4694,18.46,87,40,10.29,US,1701899081
369,katsuura,35.1333,140.3,16.3,69,65,10.35,JP,1701899081
370,fortuna,40.5982,-124.1573,13.32,95,100,2.57,US,1701899081
371,chengde,40.9725,117.9361,-3.91,46,8,0.66,CN,1701899082
372,jamestown,42.097,-79.2353,0.77,80,100,5.66,US,1701899001
373,cururupu,-1.8283,-44.8683,26.28,83,100,1.9,BR,1701898791
374,atafu village,-8.5421,-172.5159,29.13,75,99,3.5,TK,1701899082
375,gioia tauro,38.424,15.899,14.07,65,100,6.25,IT,1701899082
376,garissa,-0.4536,39.6401,27.96,54,89,2.1,KE,1701899082
377,merizo village,13.2658,144.6691,27.31,83,89,6.98,GU,1701899082
378,puerto santa,-8.9906,-78.6456,20.6,82,100,4.83,PE,1701899083
379,aragarcas,-15.8975,-52.2508,35.36,55,20,0.0,BR,1701898953
380,butembo,0.15,29.2833,14.2,97,10,1.15,CD,1701899038
381,cox's bazar,21.4532,91.9798,23.29,76,100,2.11,BD,1701899083
382,tsumeb,-19.2333,17.7167,23.86,55,94,3.29,NA,1701899083
383,barra de santo antonio,-9.4047,-35.5072,27.6,80,26,3.41,BR,1701899083
384,acarau,-2.8856,-40.12,27.12,79,94,8.36,BR,1701899083
385,saacow,1.6279,42.4407,25.17,67,31,4.04,SO,1701899084
386,kaa-khem,51.6833,94.7333,-10.89,92,100,1.4,RU,1701899084
387,changwon,35.2281,128.6811,5.93,61,2,2.45,KR,1701899084
388,oxkutzkab,20.3,-89.4167,26.58,55,100,3.24,MX,1701899084
389,lib,8.3122,167.3766,27.8,78,88,9.85,MH,1701899084
390,banda aceh,5.5577,95.3222,26.15,82,99,2.15,ID,1701899084
391,i-n-salah,27.1935,2.4607,18.86,29,0,3.53,DZ,1701899085
392,mulanje,-16.0316,35.5,20.14,84,8,4.33,MW,1701899085
393,falam,22.9167,93.6833,13.36,97,100,0.18,MM,1701899085
394,ormara,25.2088,64.6357,22.71,51,0,2.29,PK,1701899085
395,abepura,-2.6333,140.5833,24.45,94,40,1.03,ID,1701899085
396,moissala,8.3404,17.7663,28.87,41,92,1.13,TD,1701899085
397,nantucket,41.2835,-70.0995,1.19,77,100,8.75,US,1701899085
398,caluula,11.9661,50.7569,25.43,59,8,4.65,SO,1701899086
399,weno,7.4515,151.8468,25.97,100,100,0.0,FM,1701899086
400,namibe,-15.1961,12.1522,23.38,85,100,2.13,AO,1701899086
401,nizhniy ingash,56.2,96.53,-21.69,97,100,5.53,RU,1701899086
402,el calafate,-50.3408,-72.2768,15.21,49,11,6.48,AR,1701898817
403,touggourt,33.1053,6.058,13.06,47,0,2.06,DZ,1701899086
404,chuguyevka,44.1653,133.8633,-8.15,90,100,2.33,RU,1701899087
405,eydhafushi,5.1033,73.0708,28.29,76,98,3.22,MV,1701899087
406,ambodifotatra,-16.9833,49.85,25.47,76,27,1.23,MG,1701899087
407,savalou,7.9281,1.9756,28.7,60,48,3.47,BJ,1701899087
408,bodo,67.28,14.405,-2.35,74,75,12.35,NO,1701899087
409,pemangkat,1.1667,108.9667,26.45,82,100,0.52,ID,1701899087
410,broome,42.2506,-75.833,-0.38,83,100,4.12,US,1701899087
411,ulety,51.3572,112.4849,-18.16,90,84,1.17,RU,1701899088
412,quatre cocos,-20.2078,57.7625,25.05,82,51,3.97,MU,1701899088
413,arkhangel'sk,64.5401,40.5433,-21.6,83,20,2.0,RU,1701899088
414,moscow,55.7522,37.6156,-9.76,100,100,0.82,RU,1701898788
415,lethbridge,49.7,-112.8186,12.27,54,75,1.54,CA,1701898839
416,nar'yan-mar,67.6713,53.087,-17.16,97,100,4.02,RU,1701899088
417,cooma,-36.2333,149.1333,22.78,37,21,1.18,AU,1701899088
418,saint-philippe,-21.3585,55.7679,24.77,78,45,2.51,RE,1701899089
419,az zubayr,30.3945,47.7011,11.92,71,0,2.57,IQ,1701899089
420,tual,-5.6667,132.75,28.77,68,69,0.35,ID,1701899089
421,minas de marcona,-15.2119,-75.1103,18.41,64,97,7.32,PE,1701899089
422,bhit shah,25.8044,68.4927,17.73,36,0,3.24,PK,1701899089
423,nuku'alofa,-21.1333,-175.2,28.19,78,40,3.6,TO,1701899051
424,gonabad,34.3529,58.6837,9.33,22,100,0.17,IR,1701899089
425,gazi,35.3253,25.0669,15.34,77,20,2.06,GR,1701899090
426,richards bay,-28.783,32.0377,20.19,85,100,2.08,ZA,1701899090
427,ivanava,52.1451,25.5365,-2.58,93,100,5.4,BY,1701899090
428,lethem,3.3803,-59.7968,30.01,56,82,3.06,GY,1701899090
429,george,-33.963,22.4617,15.75,94,75,0.51,ZA,1701899090
430,tucumcari,35.1717,-103.725,22.19,17,0,8.23,US,1701899090
431,kirensk,57.7853,108.1119,-46.13,100,73,1.34,RU,1701899090
432,pueblo,38.2545,-104.6091,24.97,8,0,5.14,US,1701898942
433,mahmutlar,36.949,36.1923,14.65,81,100,2.31,TR,1701899091
434,sirte,31.2089,16.5887,18.91,40,100,3.21,LY,1701899091
435,coquimbo,-29.9533,-71.3436,17.85,67,0,6.17,CL,1701898829
436,kaspiysk,42.8816,47.6392,10.13,100,100,9.0,RU,1701899091
437,khorixas,-20.3667,14.9667,23.48,33,22,3.84,NA,1701899091
438,geraldton,-28.7667,114.6,19.23,82,40,4.63,AU,1701899091
439,ulladulla,-35.35,150.4667,21.62,65,90,1.18,AU,1701899092
440,ventspils,57.3894,21.5606,-10.04,92,99,0.51,LV,1701899092
441,lazaro cardenas,17.9583,-102.2,29.23,61,72,2.78,MX,1701899059
442,west university place,29.718,-95.4338,21.84,42,0,1.54,US,1701898887
443,saint-francois,46.4154,3.9054,0.92,100,100,1.54,FR,1701899092
444,boguchany,58.3814,97.4531,-31.19,93,100,3.13,RU,1701899092
445,mezhdurechenskiy,59.6,65.9333,-31.9,96,39,2.34,RU,1701899092
446,forster,-32.1667,152.5167,24.65,73,10,1.4,AU,1701898801
447,oeiras do para,-2.0031,-49.8544,27.34,76,97,0.82,BR,1701899093
448,ubinskoye,55.3068,79.6802,-23.39,95,100,4.41,RU,1701899093
449,benjamin constant,-4.3831,-70.0311,30.07,69,40,3.09,BR,1701899093
450,usinsk,65.9939,57.5281,-31.07,99,89,1.79,RU,1701898811
451,labasa,-16.4167,179.3833,30.85,57,96,1.68,FJ,1701899093
452,nunspeet,52.3667,5.7667,2.15,90,9,2.41,NL,1701899093
453,isla mujeres,21.2311,-86.731,27.03,63,85,8.05,MX,1701899094
454,santiago,-33.4569,-70.6483,29.05,18,0,6.69,CL,1701898977
455,tucurui,-3.7661,-49.6725,26.42,83,65,0.97,BR,1701899094
456,yugorsk,61.3133,63.3319,-31.73,95,80,2.16,RU,1701899094
457,rach gia,10.0167,105.0833,24.41,90,88,2.53,VN,1701898954
458,embi,48.8264,58.1442,-7.2,67,28,2.44,KZ,1701899094
459,wamba,8.9333,8.6,24.84,26,43,2.04,NG,1701899094
460,pont rouge,48.8833,-72.0825,-10.94,92,69,2.09,CA,1701899094
461,santa marta de ortigueira,43.6833,-7.85,14.58,62,100,2.68,ES,1701899095
462,bushehr,28.9684,50.8385,18.05,88,2,0.0,IR,1701899095
463,yarmouth,41.7057,-70.2286,1.09,76,100,10.73,US,1701899095
464,lushoto,-4.7833,38.2833,16.12,92,84,1.14,TZ,1701899095
465,nema,57.5067,50.5011,-29.91,100,32,1.35,RU,1701899095
466,notodden,59.5594,9.2585,-4.71,92,100,1.44,NO,1701899095
467,bukama,-9.2,25.85,21.38,92,96,0.7,CD,1701899096
468,tamandare,-8.7597,-35.1047,25.74,78,8,2.83,BR,1701898916
469,jambi city,-1.6,103.6167,22.59,95,36,1.08,ID,1701899096
470,cascais,38.6979,-9.4215,13.92,85,100,7.15,PT,1701899096
471,dolgoderevenskoye,55.3444,61.3444,-24.82,76,0,4.0,RU,1701899096
472,lihue,21.9789,-159.3672,26.31,70,75,6.17,US,1701899096
473,horta,38.5333,-28.6333,17.8,81,40,8.23,PT,1701899097
474,brioude,45.1667,3.4167,0.83,87,87,0.4,FR,1701899097
475,queenstown,-31.8976,26.8753,13.24,91,98,1.2,ZA,1701899097
476,veruela,8.0731,125.9558,23.19,99,96,0.78,PH,1701899097
477,polyarnyy,69.1989,33.4478,-14.79,95,88,4.69,RU,1701899097
478,chosica,-11.9431,-76.7094,14.67,65,100,3.19,PE,1701899097
479,pinas,-3.6667,-79.65,27.62,94,100,1.04,EC,1701899097
480,rudnichnyy,59.617,52.4703,-35.54,100,21,1.18,RU,1701899098
481,upper dir,35.2058,71.8756,8.01,27,0,3.76,PK,1701899098
482,ust'-ilimsk,58.0006,102.6619,-40.87,99,10,1.45,RU,1701899098
483,kaga bandoro,6.9896,19.1874,26.97,52,73,1.46,CF,1701899098
484,kavieng,-2.5744,150.7967,28.49,77,100,2.23,PG,1701899098
485,teruel,40.6667,-0.6667,2.85,50,100,2.35,ES,1701899098
486,charters towers,-20.1,146.2667,24.66,55,54,6.23,AU,1701899098
487,miramar beach,30.3744,-86.3586,15.35,49,68,5.11,US,1701898927
488,blagoveshchenka,52.8333,79.8667,-13.87,85,100,8.68,RU,1701899099
489,thinadhoo,0.5333,72.9333,27.56,80,99,4.42,MV,1701899099
490,al hamul,31.3115,31.1477,16.17,71,65,3.03,EG,1701899099
491,newport,51.5877,-2.9984,7.3,91,100,8.59,GB,1701899099
492,south portland gardens,43.639,-70.3153,-2.66,76,75,3.09,US,1701899099
493,basco,20.4487,121.9702,25.86,78,99,9.48,PH,1701899099
494,kalmunai,7.4167,81.8167,25.52,91,7,3.02,LK,1701899100
495,waspan,14.7419,-83.9717,25.42,88,26,2.96,NI,1701899100
496,ar ruways,24.1103,52.7306,22.41,68,15,2.15,AE,1701899100
497,moradabad,28.8333,78.7833,15.41,45,0,2.46,IN,1701899100
498,berezovo,63.9381,65.0419,-38.17,99,12,1.53,RU,1701899100
499,city of balikpapan,-1.242,116.8942,24.97,100,40,1.54,ID,1701899100
500,viamao,-30.0811,-51.0233,25.45,93,100,2.06,BR,1701898915
501,carnarvon,-24.8667,113.6333,22.59,73,0,9.11,AU,1701899101
502,vorgashor,67.5833,63.95,-30.72,100,16,0.73,RU,1701899101
503,suntar,62.1444,117.6319,-47.22,100,76,1.33,RU,1701899101
504,sampang,-7.1872,113.2394,26.92,82,78,3.4,ID,1701899101
505,holualoa,19.6228,-155.9522,28.26,74,20,4.12,US,1701899101
506,sacramento,38.4666,-121.3177,15.21,84,75,3.6,US,1701898950
507,gorom-gorom,14.4439,-0.2361,25.99,14,2,3.13,BF,1701899102
508,olyokminsk,60.3736,120.4264,-45.4,100,74,0.35,RU,1701899103
509,kamaishi,39.2667,141.8833,10.61,89,100,3.14,JP,1701899103
510,conceicao da barra,-18.5933,-39.7322,25.32,80,3,3.87,BR,1701899103
511,khorugh,37.4897,71.553,-6.45,60,1,0.56,TJ,1701899104
512,ak'ordat,15.5486,37.8867,25.88,43,26,2.27,ER,1701899104
513,inverell,-29.7833,151.1167,32.59,45,4,1.34,AU,1701899104
514,george town,5.4112,100.3354,26.96,92,20,0.51,MY,1701899029
515,boqueirao,-7.5,-36.1333,26.75,48,53,7.4,BR,1701899105
516,forshaga,59.5254,13.4813,-8.71,92,100,2.06,SE,1701899105
517,zuwarah,32.9312,12.082,16.85,45,76,1.57,LY,1701899105
518,callao,-12.0667,-77.15,20.16,77,75,5.66,PE,1701899042
519,hsinchu,24.8036,120.9686,18.81,67,56,2.24,TW,1701899105
520,grantsville,40.5999,-112.4644,15.31,44,94,3.18,US,1701899106
521,kelibia,36.8476,11.0939,12.14,94,75,1.03,TN,1701899106
522,madang,-5.2246,145.7966,25.28,92,99,2.96,PG,1701899106
523,kill devil hills,36.0307,-75.676,7.21,63,75,6.69,US,1701898812
524,oppdal,62.5943,9.6912,-9.13,71,100,3.18,NO,1701899107
525,dowa,-13.654,33.9375,20.34,73,62,1.9,MW,1701899107
526,kalemie,-5.9475,29.1947,21.18,84,65,1.52,CD,1701899107
527,kozan,37.4552,35.8157,14.06,82,100,2.52,TR,1701899107
528,zhaqsy,51.9083,67.3133,-25.1,100,94,2.93,KZ,1701899108
529,kidal,18.4411,1.4078,24.31,13,0,3.19,ML,1701899108
530,urcos,-13.6861,-71.6228,15.94,68,100,3.23,PE,1701899108
531,dhidhdhoo,6.8833,73.1,27.97,74,96,1.93,MV,1701899108
532,port douglas,-16.4833,145.4667,26.87,66,77,4.88,AU,1701899108
533,letlhakane,-21.4167,25.5833,22.09,55,7,7.33,BW,1701899109
534,xilin hot,43.9667,116.0333,-6.17,78,100,5.05,CN,1701899109
535,mossendjo,-2.9506,12.7261,20.79,99,27,0.43,CG,1701899109
536,fisterra,42.9049,-9.2629,12.08,85,100,14.58,ES,1701899109
537,kingsland,30.8,-81.6898,15.97,49,4,2.54,US,1701899109
538,funafuti,-8.5243,179.1942,32.0,79,75,5.14,TV,1701899110
539,puerto santander,8.3636,-72.4063,32.67,60,55,1.28,CO,1701899110
540,lake city,30.1897,-82.6393,16.03,44,0,3.6,US,1701899097
541,west bay,19.3667,-81.4167,29.04,74,20,6.17,KY,1701899110
542,kemise,10.7167,39.8667,19.73,48,93,1.05,ET,1701899110
543,vila velha,-20.3297,-40.2925,26.97,85,20,6.69,BR,1701899111
544,faya-largeau,17.9257,19.1043,20.33,24,0,5.76,TD,1701899111
545,bahia honda,22.9036,-83.1592,23.23,65,71,6.73,CU,1701899111
546,mangalia,43.8,28.5833,9.2,89,100,7.1,RO,1701899111
547,pangody,65.85,74.4859,-37.61,98,20,2.71,RU,1701899111
548,barro alto,-11.7608,-41.9117,24.87,46,8,2.99,BR,1701899111
549,manggar,-2.8833,108.2667,26.19,86,100,2.45,ID,1701898846
550,vyerkhnyadzvinsk,55.7815,27.9443,-14.77,98,86,2.62,BY,1701899112
551,partenit,44.578,34.3446,7.62,83,86,4.29,UA,1701899112
552,hengchun,22.0042,120.7439,20.95,79,99,9.15,TW,1701899112
553,edgewater,28.9889,-80.9023,17.29,55,0,8.23,US,1701899112
554,breyten,-26.3018,29.987,11.6,97,100,3.6,ZA,1701899113
555,orcopampa,-15.2661,-72.3417,14.01,36,91,5.22,PE,1701899113
556,mount pearl,47.5166,-52.7813,-4.04,83,40,2.57,CA,1701899113
557,tuy hoa,13.0833,109.3,23.14,91,99,2.89,VN,1701899113
558,quiberon,47.4841,-3.1196,12.33,82,100,3.13,FR,1701899114
559,colac,-38.3333,143.5833,14.35,57,100,0.4,AU,1701899114
560,tsiombe,-25.3,45.4833,22.57,73,43,6.65,MG,1701899114
561,rufino,-34.2683,-62.7126,24.9,56,22,3.96,AR,1701899114
562,cadale,2.7603,46.3222,26.66,73,4,7.19,SO,1701899115
